id,nama,alamat,latitude,longitude,jam operasional,Nomer Telepon,Informasi Tambahan,Name
1,SMP Maarif 01 Lawang,"Jl. Thamrin No.8, Lawang, Kec. Lawang, Kabupaten Malang, Jawa Timur 65211",-7.83824,112.69836,Senin-Jumat 24 Jam,62341427609,Sekolah Menengah Pertama Swasta di Jawa Timur,D:\TEKO HARDISK LAWAS\Kuliah\Semester 4\Sistem Informasi Geografis\UAS\Foto SMP\smpmaarif1.jpg
2,SMP Negeri 2 Lawang,"Jl. Inspol Suwoto No.27, Klosot, Sidodadi, Kec. Lawang, Kabupaten Malang, Jawa Timur 65216",-7.85974,112.71138,Senin-Jumat 06.30-16.30,62341425890,Sekolah Menengah Pertama Negeri di Jawa Timur,D:\TEKO HARDISK LAWAS\Kuliah\Semester 4\Sistem Informasi Geografis\UAS\Foto SMP\smpn2.jpg
3,SMP PLUS DARUSSALAM LAWANG,"Gang 3C, Dusun Turi, Desa Jalan Anjasmoro No.07, RT.02/RW.5, Turi, Turirejo, Kec. Lawang, Kabupaten Malang, Jawa Timur 65213",-7.82083,112.68975,Senin-Sabtu 06.30-14.00,6.28E+12,Sekolah Menengah Pertama Swasta di Jawa Timur,D:\TEKO HARDISK LAWAS\Kuliah\Semester 4\Sistem Informasi Geografis\UAS\Foto SMP\smpplusdarussalam.jpg
4,SMP PGRI 2 Lawang,"Jl. Argo Puro gang argodua No.95, Lawang, Kec. Lawang, Kabupaten Malang, Jawa Timur 65211",-7.83811,112.69441,Setiap Hari 07.00-14.00,62341425578,Sekolah Menengah Pertama Swasta di Jawa Timur,D:\TEKO HARDISK LAWAS\Kuliah\Semester 4\Sistem Informasi Geografis\UAS\Foto SMP\smppgri2.jpg
5,SMP Katolik Budi Mulia,"Jl. Argomoyo No.2, Lawang, Kec. Lawang, Kabupaten Malang, Jawa Timur 65211",-7.83485,112.69176,Senin-Sabtu 07.00-14.00,62341426862,Sekolah Menengah Pertama Swasta Katolik di Jawa Timur,D:\TEKO HARDISK LAWAS\Kuliah\Semester 4\Sistem Informasi Geografis\UAS\Foto SMP\smpkbudimulia.jpg
6,SMP 'AISYIYAH BOARDING SCHOOL MALANG,"Jl. Argobimo No.11, Lawang, Kec. Lawang, Kabupaten Malang, Jawa Timur 65214",-7.83534,112.69057,Senin-Sabtu 07.00-15.00,62341427282,Sekolah Menengah Pertama Swasta Islam di Jawa Timur,D:\TEKO HARDISK LAWAS\Kuliah\Semester 4\Sistem Informasi Geografis\UAS\Foto SMP\smpboard.jpg
7,MTs Negeri 3 Lawang,"Jl. Mandiri No.9, Lawang, Kec. Lawang, Kabupaten Malang, Jawa Timur 67163",-7.84024,112.69643,Senin-Jumat 07.00-16.00,62341425401,Madrasah Tsanawiyah Negeri di Jawa Timur,D:\TEKO HARDISK LAWAS\Kuliah\Semester 4\Sistem Informasi Geografis\UAS\Foto SMP\mtsn3.jpg
